{"type":"FeatureCollection","features":[{"type":"Feature","properties":{"marker-symbol":"rail-metro","marker-size":"medium","title":"Vienna"},"geometry":{"type":"Point","coordinates":[16.3738,48.2082]}},{"type":"Feature","properties":{"marker-symbol":"rail-metro","marker-size":"small","title":"St. Pölten"},"geometry":{"type":"Point","coordinates":[15.6247,48.2047]}},{"type":"Feature","properties":{"marker-symbol":"rail-metro","marker-size":"small","title":"Amstetten"},"geometry":{"type":"Point","coordinates":[14.8808,48.1225]}},{"type":"Feature","properties":{"marker-symbol":"rail-metro","marker-size":"small","title":"St. Valentin"},"geometry":{"type":"Point","coordinates":[14.5123,48.1937]}},{"type":"Feature","properties":{"marker-symbol":"rail-metro","marker-size":"small","title":"Linz"},"geometry":{"type":"Point","coordinates":[14.2858,48.3069]}},{"type":"Feature","properties":{"marker-symbol":"rail-metro","marker-size":"small","title":"Innsbruck"},"geometry":{"type":"Point","coordinates":[11.4041,47.2692]}},{"type":"Feature","properties":{"marker-symbol":"rail-metro","marker-size":"small","title":"Ötztal"},"geometry":{"type":"Point","coordinates":[10.9267,47.0913]}},{"type":"Feature","properties":{"marker-symbol":"rail-metro","marker-size":"small","title":"Imst-Pitztal"},"geometry":{"type":"Point","coordinates":[10.7399,47.2381]}},{"type":"Feature","properties":{"marker-symbol":"rail-metro","marker-size":"small","title":"Landeck-Zams"},"geometry":{"type":"Point","coordinates":[10.5616,47.1392]}},{"type":"Feature","properties":{"marker-symbol":"rail-metro","marker-size":"small","title":"St. Anton am Arlberg"},"geometry":{"type":"Point","coordinates":[10.2679,47.1315]}},{"type":"Feature","properties":{"marker-symbol":"rail-metro","marker-size":"small","title":"Langen am Arlberg"},"geometry":{"type":"Point","coordinates":[10.1266,47.1263]}},{"type":"Feature","properties":{"marker-symbol":"rail-metro","marker-size":"small","title":"Bludenz"},"geometry":{"type":"Point","coordinates":[9.8077,47.1551]}},{"type":"Feature","properties":{"marker-symbol":"rail-metro","marker-size":"small","title":"Feldkirch"},"geometry":{"type":"Point","coordinates":[9.5988,47.238]}},{"type":"Feature","properties":{"marker-symbol":"rail-metro","marker-size":"small","title":"Rankweil"},"geometry":{"type":"Point","coordinates":[9.6187,47.2716]}},{"type":"Feature","properties":{"marker-symbol":"rail-metro","marker-size":"small","title":"Götzis"},"geometry":{"type":"Point","coordinates":[9.649,47.3236]}},{"type":"Feature","properties":{"marker-symbol":"rail-metro","marker-size":"small","title":"Hohenems"},"geometry":{"type":"Point","coordinates":[9.6899,47.3669]}},{"type":"Feature","properties":{"marker-symbol":"rail-metro","marker-size":"small","title":"Dornbirn"},"geometry":{"type":"Point","coordinates":[9.7368,47.4137]}},{"type":"Feature","properties":{"marker-symbol":"rail-metro","marker-size":"medium","title":"Bregenz"},"geometry":{"type":"Point","coordinates":[9.7476,47.5033]}},{"type":"Feature","geometry":{"type":"LineString","coordinates":[[16.3738,48.2082],[15.6247,48.2047],[14.8808,48.1225],[14.5123,48.1937],[14.2858,48.3069],[11.4041,47.2692],[10.9267,47.0913],[10.7399,47.2381],[10.5616,47.1392],[10.2679,47.1315],[10.1266,47.1263],[9.8077,47.1551],[9.5988,47.238],[9.6187,47.2716],[9.649,47.3236],[9.6899,47.3669],[9.7368,47.4137],[9.7476,47.5033]]},"properties":{}}]}